[
  {
"locationID": "001",
"latitude": "25.264265",
"longitude": "55.311720",
"name": "Dubai Municipality Main buidling",
"city": "Dubai",
"country": "United Arab Emirates",
"phone": "800900",
"type": "Services",
"email": "info@dm.gov.ae",
"url": "https://dm.gov.ae"
  },
  {
"locationID": "002",
"latitude": "25.274103",
"longitude": "55.331744",
"name": "Dubai Municipality (Hour al anz)",
"city": "Dubai",
"country": "United Arab Emirates",
"phone": "800900",
"type": "Services",
"email": "info@dm.gov.ae",
"url": "https://dm.gov.ae"
  },
  {
"locationID": "003",
"latitude": "25.281263",
"longitude": "55.345981",
"name": "Dubai Municipality (Abu Hail)",
"city": "Dubai",
"country": "United Arab Emirates",
"phone": "800900",
"type": "Services",
"email": "info@dm.gov.ae",
"url": "https://dm.gov.ae"
  },
  {
"locationID": "004",
"latitude": "25.229739",
"longitude": "55.274965",
"name": "Dubai Municipality - Al Bada'a",
"city": "Dubai",
"country": "United Arab Emirates",
"phone": "800900",
"type": "Services",
"email": "info@dm.gov.ae",
"url": "https://dm.gov.ae"
  },
  {
"locationID": "005",
"latitude": "25.245299",
"longitude": "55.303216",
"name": "Dubai Municipality Karama Center",
"city": "Dubai",
"country": "United Arab Emirates",
"phone": "800900",
"type": "Services",
"email": "info@dm.gov.ae",
"url": "https://dm.gov.ae"
  },
  {
"locationID": "006",
"latitude": "25.265048",
"longitude": "55.300182",
"name": "Architectural Heritage Department",
"city": "Dubai",
"country": "United Arab Emirates",
"phone": "800900",
"type": "Services",
"email": "info@dm.gov.ae",
"url": "https://dm.gov.ae"
  },
  {
"locationID": "007",
"latitude": "25.235331",
"longitude": "55.293615",
"name": "Dubai Municipality Al KIFAF center",
"city": "Dubai",
"country": "United Arab Emirates",
"phone": "800900",
"type": "Services",
"email": "info@dm.gov.ae",
"url": "https://dm.gov.ae"
  },
  {
"locationID": "008",
"latitude": "25.262933",
"longitude": "55.385055",
"name": "Dubai Municipality Building Permit Department",
"city": "Dubai",
"country": "United Arab Emirates",
"phone": "800900",
"type": "Services",
"email": "info@dm.gov.ae",
"url": "https://dm.gov.ae"
  },
  {
"locationID": "009",
"latitude": "25.145498",
"longitude": "55.350250",
"name": "Dubai Municipality Nad Al Sheba office",
"city": "Dubai",
"country": "United Arab Emirates",
"phone": "800900",
"type": "Services",
"email": "info@dm.gov.ae",
"url": "https://dm.gov.ae"
  },
  {
"locationID": "010",
"latitude": "25.156496",
"longitude": "55.227233",
"name": "Al Manara Center Dubai Municipality",
"city": "Dubai",
"country": "United Arab Emirates",
"phone": "800900",
"type": "Services",
"email": "info@dm.gov.ae",
"url": "https://dm.gov.ae"
  }
]